id,cp_code,name,address,address_postal,zone,longitude,latitude,x_coord,y_coord,rates,start_time,end_time,data_provider_id,remarks,capacity_car,capacity_mcycle,capacity_heavy,is_active,height_limit,height_advisory,special_advisory_info,carpark_operator_id,payment_types,carpark_types,location_point,version,created_at,updated_at,rate_id_car,rate_id_mcycle,rate_id_heavy,grace_period
30705,NULL,Victory 8,8 Jalan Legundi,NULL,NULL,103.8236932,1.4418407,26928.09,47057.61,NULL,0,2359,1,NULL,0,0,0,TRUE,NULL,NULL,NULL,1,EPS,NULL,0101000020E610000001FCAE63B7F45940FFAAC88DC711F73F,20221208,58:14.2,58:14.2,30705,NULL,NULL,10
30704,NULL,Tekka Place,2 Serangoon Road,NULL,NULL,103.852227,1.304627,30103.9,31885.34,NULL,0,2359,2,NULL,0,0,0,TRUE,NULL,NULL,NULL,2,EPS,NULL,0101000020E61000002A711DE38AF6594050A8A78FC0DFF43F,20221208,58:14.2,58:14.2,30704,NULL,NULL,15
30703,NULL,Rochester Mall,35 Rochester Drive,NULL,NULL,103.7884467,1.3054077,23005.16,31971.66,NULL,0,2359,3,NULL,0,0,0,TRUE,NULL,NULL,NULL,3,EPS,NULL,0101000020E6100000E7C825E975F259403025372FF3E2F43F,20221208,58:14.2,58:14.2,30703,NULL,NULL,0
30702,NULL,Punggol Plaza,168 Punggol Field,NULL,NULL,103.9130473,1.3942372,36873.2,41793.9,NULL,0,2359,4,NULL,0,0,0,TRUE,NULL,NULL,NULL,4,EPS,NULL,0101000020E6100000DF4CF15D6FFA5940A4DD8DAACB4EF63F,20221208,58:14.2,58:14.2,30702,NULL,NULL,15
30701,NULL,Loyang Point,259 Pasir Ris Street 21,NULL,NULL,103.9645985,1.3664536,42610.85,38721.75,NULL,0,2359,1,NULL,0,0,0,TRUE,2,NULL,NULL,5,EPS,NULL,0101000020E610000052D158FBBBFD594001063873FEDCF53F,20221208,58:14.2,58:14.2,30701,NULL,NULL,0
30700,NULL,JTC Food Hub @ Senoko,15 Senoko Drive,NULL,NULL,103.7987536,1.4605418,24152.32,49125.46,NULL,0,2359,2,NULL,0,0,0,TRUE,NULL,NULL,NULL,6,EPS,NULL,0101000020E6100000FC636BC71EF35940390E1714615EF73F,20221208,58:14.2,58:14.2,30700,NULL,NULL,15
30699,NULL,Yi Guang Factory Building,180 Paya Lebar Road,NULL,NULL,103.8899942,1.3308602,34307.39,34786.05,NULL,0,2359,3,NULL,0,0,0,TRUE,NULL,NULL,NULL,7,EPS,NULL,0101000020E61000004DA83BAAF5F85940B0C4A810344BF53F,20221208,58:14.2,58:14.2,30699,NULL,NULL,10
30698,NULL,D Lithium,82 Playfair Road,NULL,NULL,103.8854317,1.3372217,33799.59,35489.47,NULL,0,2359,4,NULL,0,0,0,TRUE,2,NULL,NULL,8,EPS,NULL,0101000020E6100000DE95B8E9AAF859403D06D0944265F53F,20221208,58:14.2,58:14.2,30698,NULL,NULL,10
30697,NULL,Singapore Handicrafts Building,72 Eunos Avenue 7,NULL,NULL,103.8985283,1.3234015,35257.24,33961.31,NULL,0,2359,1,NULL,0,0,0,TRUE,NULL,NULL,NULL,9,EPS,NULL,0101000020E6100000F3C1D77C81F9594033A31F0DA72CF53F,20221208,58:14.2,58:14.2,30697,NULL,NULL,0
30696,NULL,Sin Ming Autocity,160 Sin Ming Drive,NULL,NULL,103.8386619,1.3595332,28594.11,37956.54,NULL,0,2359,2,NULL,0,0,0,TRUE,NULL,NULL,NULL,10,EPS,NULL,0101000020E6100000AE39F6A2ACF559403A387DE2A5C0F53F,20221208,58:14.1,58:14.1,30696,NULL,NULL,15
30695,NULL,Hmlet Cantonment,150 Cantonment Road,NULL,NULL,103.8406804,1.2741066,28818.77,28510.58,NULL,0,2359,3,NULL,0,0,0,TRUE,NULL,NULL,NULL,11,EPS,NULL,0101000020E6100000D8182AB5CDF5594052E2299ABD62F43F,20221208,58:14.1,58:14.1,30695,NULL,NULL,15
30694,NULL,Techplace 1,4008 Ang Mo Kio Avenue 10,NULL,NULL,103.8563878,1.3598823,30567,37995.14,NULL,0,2359,4,NULL,0,0,0,TRUE,NULL,NULL,NULL,12,EPS,NULL,0101000020E6100000606CC60ECFF65940558C4EF113C2F53F,20221208,58:14.1,58:14.1,30694,NULL,NULL,10
30693,NULL,AMK Tech Link,20 Ang Mo Kio industrial Park 2A,NULL,NULL,103.8705772,1.3769665,32146.28,39884.21,NULL,0,2359,1,NULL,0,0,0,TRUE,NULL,NULL,NULL,13,EPS,NULL,0101000020E61000002BA96E89B7F75940580053060E08F63F,20221208,58:14.1,58:14.1,30693,NULL,NULL,15
30692,NULL,AMK Tech 2,5 Ang Mo Kio industrial Park 2A,NULL,NULL,103.8704265,1.378056,32129.51,40004.68,NULL,0,2359,2,NULL,0,0,0,TRUE,NULL,NULL,NULL,14,EPS,NULL,0101000020E610000097C45911B5F75940BCE7C072840CF63F,20221208,58:14.1,58:14.1,30692,NULL,NULL,15
30691,NULL,AMK Tech 1,1 Ang Mo Kio industrial Park 2A,NULL,NULL,103.8678561,1.3779474,31843.42,39992.67,NULL,0,2359,3,NULL,0,0,0,TRUE,NULL,NULL,NULL,15,EPS,NULL,0101000020E610000095C84FF48AF7594050BBA992120CF63F,20221208,58:14.1,58:14.1,30691,NULL,NULL,15
30690,NULL,St Michael Industrial Estate,65A Jalan Tenteram,NULL,NULL,103.8584489,1.3287027,30796.4,34547.49,NULL,0,2359,4,NULL,0,0,0,TRUE,NULL,NULL,NULL,16,EPS,NULL,0101000020E610000061B2A7D3F0F65940DCB529C35D42F53F,20221208,58:14.1,58:14.1,30690,NULL,NULL,0
30689,NULL,Goodman Art Centre (Carpark B),90 Goodman Road,NULL,NULL,103.8849242,1.3040865,33743.1,31825.57,NULL,0,2359,1,NULL,0,0,0,TRUE,2.5,NULL,NULL,1,EPS,NULL,0101000020E6100000189C1C99A2F859404E7B4ACE89DDF43F,20221208,58:14.1,58:14.1,30689,NULL,NULL,15
30688,NULL,Goodman Art Centre (Carpark A),90 Goodman Road,NULL,NULL,103.8849242,1.3040865,33743.1,31825.57,NULL,0,2359,2,NULL,0,0,0,TRUE,NULL,NULL,NULL,2,EPS,NULL,0101000020E6100000189C1C99A2F859404E7B4ACE89DDF43F,20221208,58:14.1,58:14.1,30688,NULL,NULL,0
30687,NULL,JTC MedTech Hub @ MedTech Park,2 Tukang Innovation Grove,NULL,NULL,103.7102421,1.3250462,14300.99,34143.17,NULL,0,2359,3,NULL,0,0,0,TRUE,2.2,NULL,NULL,3,EPS,NULL,0101000020E610000083EF479B74ED59407406EBA46333F53F,20221208,58:14.1,58:14.1,30687,NULL,NULL,0
30686,NULL,JTC CleanTech Two @ CleanTech Park,3 Cleantech Loop,NULL,NULL,103.69333,1.3551176,12418.67,37468.29,NULL,0,2359,4,NULL,0,0,0,TRUE,2.15,NULL,NULL,4,EPS,NULL,0101000020E61000007CD5CA845FEC594081BEE3CA8FAEF53F,20221208,58:14.1,58:14.1,30686,NULL,NULL,15
30685,NULL,JTC BioMed One @ Tuas Biomedical Park,128 Tuas South Avenue 3,NULL,NULL,103.6263975,1.2891579,4969.08,30174.86,NULL,0,2359,1,NULL,0,0,0,TRUE,NULL,NULL,NULL,5,EPS,NULL,0101000020E6100000F4328AE516E85940A314BE0864A0F43F,20221208,58:14.1,58:14.1,30685,NULL,NULL,15
30684,NULL,JTC Aviation Two @ Seletar Aerospace Park,690 West Camp Road,NULL,NULL,103.8639471,1.4198968,31408.35,44631.18,NULL,0,2359,2,NULL,0,0,0,TRUE,NULL,NULL,NULL,6,EPS,NULL,0101000020E610000057FEC6E84AF75940F01EFBB4E5B7F63F,20221208,58:14.1,58:14.1,30684,NULL,NULL,15
30683,NULL,JTC Aviation One @ Seletar Aerospace Park,700 West Camp Road,NULL,NULL,103.8641238,1.4203787,31428.02,44684.47,NULL,0,2359,3,NULL,0,0,0,TRUE,NULL,NULL,NULL,7,EPS,NULL,0101000020E61000007F2CE9CD4DF75940BEF50604DFB9F63F,20221208,58:14.0,58:14.0,30683,NULL,NULL,15
30682,NULL,BreadTalk IHQ,30 Tai Seng Street,NULL,NULL,103.8896447,1.3343047,34268.49,35166.92,NULL,0,2359,4,NULL,0,0,0,TRUE,NULL,NULL,NULL,8,EPS,NULL,0101000020E6100000D3E352F0EFF85940AD6296E24F59F53F,20221208,58:14.0,58:14.0,30682,NULL,NULL,0
30681,NULL,East Village,430 Upper Changi Road,NULL,NULL,103.9462012,1.3317758,40563.23,34887.29,NULL,0,2359,1,NULL,0,0,0,TRUE,2.2,NULL,NULL,9,EPS,NULL,0101000020E6100000E75B7A8F8EFC5940F4AA2924F44EF53F,20221208,58:14.0,58:14.0,30681,NULL,NULL,0
30678,NULL,Fernvale Square,51A Seng Kang West Avenue,NULL,NULL,103.8731156,1.391422,32428.81,41482.61,NULL,0,2359,2,NULL,0,0,0,TRUE,2.1,NULL,NULL,10,NULL,NULL,0101000020E610000028E84020E1F7594066F50EB74343F63F,20221208,58:14.0,58:14.0,30678,NULL,NULL,0
30677,NULL,Solaris,1 Fusionopolis Walk,NULL,NULL,103.7900585,1.29808942,23184.55,31162.45,NULL,0,2359,3,NULL,0,0,0,TRUE,4.2,NULL,NULL,11,NULL,NULL,0101000020E610000051DB865190F259400FF06269F9C4F43F,20221208,58:14.0,58:14.0,30677,NULL,NULL,0
30676,NULL,Pasir Ris Central Hawker Centre,110 Pasir Ris Central,NULL,NULL,103.9515478,1.3734317,41158.31,39493.35,NULL,0,2359,4,NULL,0,0,0,TRUE,2,NULL,NULL,12,NULL,NULL,0101000020E61000002B65BE28E6FC59408BA2AC8493F9F53F,20221208,58:14.0,58:14.0,30676,NULL,NULL,0
30675,NULL,Sengkang General Hospital,110 Sengkang East Way,NULL,NULL,103.8930217,1.3944205,34644.35,41814.17,NULL,0,2359,1,NULL,0,0,0,TRUE,2.1,NULL,NULL,13,NULL,NULL,0101000020E610000093077D4427F9594095F3C5DE8B4FF63F,20221208,58:14.0,58:14.0,30675,NULL,NULL,0
30674,NULL,Khoo Teck Puat Hospital,90 Yishun Central,NULL,NULL,103.8380765,1.4237923,28528.95,45061.92,NULL,0,2359,2,NULL,0,0,0,TRUE,2.4,NULL,NULL,14,NULL,NULL,0101000020E6100000F4C29D0BA3F55940F5BE4C6FDAC7F63F,20221208,58:14.0,58:14.0,30674,NULL,NULL,0
30673,NULL,Claymore Plaza,6 Claymore Hill,NULL,NULL,103.8316118,1.3068146,27809.43,32127.23,NULL,900,1900,3,NULL,0,0,0,TRUE,2,NULL,NULL,15,NULL,NULL,0101000020E6100000EFFDB22039F5594014F70E6DB6E8F43F,20221208,58:14.0,58:14.0,30673,NULL,NULL,0
30672,NULL,Civil Service Club Bukit Batok,91 Bukit Batok West Avenue 2,NULL,NULL,103.749284,1.3526303,18646.35,37193.26,NULL,0,2359,4,NULL,0,0,0,TRUE,NULL,NULL,NULL,16,NULL,NULL,0101000020E6100000A1DAE044F4EF59403A4261AB5FA4F53F,20221208,58:14.0,58:14.0,30672,NULL,NULL,0
30671,NULL,Changi General Hospital,2 Simei Street 3,NULL,NULL,103.9493525,1.3406901,40913.97,35872.98,NULL,0,2359,1,NULL,0,0,0,TRUE,2.1,NULL,NULL,1,NULL,NULL,0101000020E61000000EF8FC30C2FC5940B12259767773F53F,20221208,58:14.0,58:14.0,30671,NULL,NULL,0
30670,NULL,Gemini @ Sims,2 Sims Close,NULL,NULL,103.8775745,1.3158325,32925.08,33124.38,NULL,0,2359,2,NULL,0,0,0,TRUE,NULL,NULL,NULL,2,NULL,NULL,0101000020E61000006D533C2E2AF8594004392861A60DF53F,20221208,58:14.0,58:14.0,30670,NULL,NULL,0
30669,NULL,Pantech Business Hub,192 Pandan Loop,NULL,NULL,103.7528119,1.3111527,19039,32606.91,NULL,0,2359,3,NULL,0,0,0,TRUE,NULL,NULL,NULL,3,NULL,NULL,0101000020E610000089A2F6112EF059405CFEE8407BFAF43F,20221208,58:14.0,58:14.0,30669,NULL,NULL,0
30668,NULL,SAFRA Yishun,60 Yishun Avenue 4,NULL,NULL,103.8410433,1.4239701,28859.16,45081.58,NULL,0,2359,4,NULL,0,0,0,TRUE,2.1,NULL,NULL,4,NULL,NULL,0101000020E6100000460147A7D3F55940A8B51FDF94C8F63F,20221208,58:13.9,58:13.9,30668,NULL,NULL,0
30667,NULL,SAFRA Jurong,333 Boon Lay Way,NULL,NULL,103.7062787,1.3350072,13859.86,35244.6,NULL,0,2359,1,NULL,0,0,0,TRUE,NULL,NULL,NULL,5,NULL,NULL,0101000020E6100000219793AB33ED5940E1CA7E82305CF53F,20221208,58:13.9,58:13.9,30667,NULL,NULL,0
30666,NULL,SAFRA Tampines,1 Tampines Street 92,NULL,NULL,103.9418465,1.3447591,40078.55,36322.91,NULL,0,2359,2,NULL,0,0,0,TRUE,1.8,NULL,NULL,6,NULL,NULL,0101000020E610000088D68A3647FC59406CF9371E2284F53F,20221208,58:13.9,58:13.9,30666,NULL,NULL,0
30665,NULL,Delta House,2 Alexandra Road,NULL,NULL,103.8253587,1.2910236,27113.46,30381.16,NULL,0,2359,3,NULL,0,0,0,TRUE,NULL,NULL,NULL,7,NULL,NULL,0101000020E610000005FE4BADD2F45940B4D3C55C08A8F43F,20221208,58:13.9,58:13.9,30665,NULL,NULL,0
30664,NULL,Cluny Court,501 Bukit Timah Road,NULL,NULL,103.8142455,1.3225732,25876.56,33869.72,NULL,0,2359,4,NULL,0,0,0,TRUE,NULL,NULL,NULL,8,NULL,NULL,0101000020E6100000925A28991CF459409C0E09844229F53F,20221208,58:13.9,58:13.9,30664,NULL,NULL,0
30663,NULL,Concorde Shopping Centre,317 Outram Road,NULL,NULL,103.8342068,1.2888861,28098.26,30144.81,NULL,0,2359,1,NULL,0,0,0,TRUE,2.1,NULL,NULL,9,NULL,NULL,0101000020E61000007406EBA463F55940C44DFC07479FF43F,20221208,58:13.9,58:13.9,30663,NULL,NULL,0
30662,NULL,Chancerlodge Complex,105 Sims Avenue,NULL,NULL,103.8773953,1.3146166,32905.14,32989.93,NULL,0,2359,2,NULL,0,0,0,TRUE,NULL,NULL,NULL,10,NULL,NULL,0101000020E610000081CA9D3E27F859409C757C6AAB08F53F,20221208,58:13.9,58:13.9,30662,NULL,NULL,0
30661,NULL,Connection One,167 Jalan Bukit Merah,NULL,NULL,103.8185266,1.2826382,26353.05,29453.95,NULL,0,2359,3,NULL,0,0,0,TRUE,1.9,NULL,NULL,11,NULL,NULL,0101000020E6100000FD7964BD62F45940DC9A19A2AF85F43F,20221208,58:13.9,58:13.9,30661,NULL,NULL,0
30660,NULL,Plaza 8@CBP,1 Changi Business Park Crescent,NULL,NULL,103.9654119,1.3336016,42701.38,35089.18,NULL,0,2359,4,NULL,0,0,0,TRUE,2.2,NULL,NULL,12,NULL,NULL,0101000020E6100000D56AFE4EC9FD5940D94A9EA16E56F53F,20221208,58:13.9,58:13.9,30660,NULL,NULL,0
30659,NULL,Wisteria Mall,598 Yishun Ring Road,NULL,NULL,103.8412365,1.4179993,28880.66,44421.37,NULL,0,2359,1,NULL,0,0,0,TRUE,NULL,NULL,NULL,13,NULL,NULL,0101000020E6100000E5EC9DD1D6F55940A803B40820B0F63F,20221208,58:13.9,58:13.9,30659,NULL,NULL,0
30658,NULL,The Brooks II,25 Springside Green,NULL,NULL,103.81885,1.4039386,26389.04,42866.62,NULL,0,2359,2,NULL,0,0,0,TRUE,2.2,NULL,NULL,14,NULL,NULL,0101000020E61000001895D40968F45940F07849528876F63F,20221208,58:13.9,58:13.9,30658,NULL,NULL,0
30657,NULL,The Brooks I,60 Springside Walk,NULL,NULL,103.8194655,1.4048091,26457.55,42962.88,NULL,0,2359,3,NULL,0,0,0,TRUE,2.2,NULL,NULL,15,NULL,NULL,0101000020E6100000D2AC6C1F72F459409AF8591B197AF63F,20221208,58:13.8,58:13.8,30657,NULL,NULL,0
30656,NULL,Primz Bizhub,21 Woodlands Close,NULL,NULL,103.8047627,1.4350788,24821.13,46309.92,NULL,0,2359,4,NULL,0,0,0,TRUE,NULL,NULL,NULL,16,NULL,NULL,0101000020E61000009A62693B81F3594043ED123015F6F63F,20221208,58:13.8,58:13.8,30656,NULL,NULL,0
30655,NULL,OrangeTee Building,430 Lorong 6 Toa Payoh,NULL,NULL,103.8493895,1.3313978,29788.09,34845.49,NULL,0,2359,1,NULL,0,0,0,TRUE,2,NULL,NULL,1,NULL,NULL,0101000020E61000003604C7655CF659402A768FC7674DF53F,20221208,58:13.8,58:13.8,30655,NULL,NULL,0
30654,NULL,New Tech Park,151 Lorong Chuan,NULL,NULL,103.8606983,1.352062,31046.76,37130.42,NULL,0,2359,2,NULL,0,0,0,TRUE,NULL,NULL,NULL,2,NULL,NULL,0101000020E6100000428E52AE15F7594030A182C30BA2F53F,20221208,58:13.8,58:13.8,30654,NULL,NULL,0
30653,NULL,Junction Nine,18 Yishun Avenue 9,NULL,NULL,103.8416008,1.433032,28921.21,46083.59,NULL,0,2359,3,NULL,0,0,0,TRUE,NULL,NULL,NULL,3,NULL,NULL,0101000020E610000065129AC9DCF559408DF161F6B2EDF63F,20221208,58:13.8,58:13.8,30653,NULL,NULL,0
30652,NULL,Jackson Square,11 Lorong 3 Toa Payoh,NULL,NULL,103.8484997,1.3373269,29689.06,35501.1,NULL,0,2359,4,NULL,0,0,0,TRUE,NULL,NULL,NULL,4,NULL,NULL,0101000020E61000009D8AAFD14DF659401DFA38E4B065F53F,20221208,58:13.8,58:13.8,30652,NULL,NULL,0
30651,NULL,Farrer Park Hospital,1 Farrer Park Station Road,NULL,NULL,103.8520286,1.3130812,30081.82,32820.15,NULL,0,2359,1,NULL,0,0,0,TRUE,2.3,NULL,NULL,5,NULL,NULL,0101000020E61000006D10F7A287F6594004E1AF6E6102F53F,20221208,58:13.8,58:13.8,30651,NULL,NULL,0
30650,NULL,Highland Centre,22 Yio Chu Kang Road,NULL,NULL,103.8772545,1.3553912,32889.47,37498.54,NULL,0,2359,2,NULL,0,0,0,TRUE,NULL,NULL,NULL,6,NULL,NULL,0101000020E610000035F10EF024F859404194D4AEAEAFF53F,20221208,58:13.8,58:13.8,30650,NULL,NULL,0
30649,NULL,888 Plaza,888 Woodlands Drive 50,NULL,NULL,103.7953161,1.4371186,23769.72,46535.47,NULL,0,2359,3,NULL,0,0,0,TRUE,2.15,NULL,NULL,7,NULL,NULL,0101000020E6100000DDDE7F75E6F25940A992B71270FEF63F,20221208,58:13.8,58:13.8,30649,NULL,NULL,0
30648,NULL,Thomson Medical Centre,339 Thomson Road,NULL,NULL,103.8414484,1.3253641,28904.25,34178.32,NULL,0,2359,4,NULL,0,0,0,TRUE,NULL,NULL,NULL,8,NULL,NULL,0101000020E610000061D1634ADAF55940F9AD8CFCB034F53F,20221208,58:13.8,58:13.8,30648,NULL,NULL,0
30647,NULL,Goldbell Towers,47 Scotts Road,NULL,NULL,103.8370774,1.3123595,28417.75,32740.35,NULL,0,2359,1,NULL,0,0,0,TRUE,NULL,NULL,NULL,9,NULL,NULL,0101000020E6100000204E16AD92F55940C284D1AC6CFFF43F,20221208,58:13.8,58:13.8,30647,NULL,NULL,0
30646,NULL,Chinatown Complex,335 Smith Street,NULL,NULL,103.8431776,1.2822352,29096.71,29409.39,NULL,0,2359,2,NULL,0,0,0,TRUE,1.9,NULL,NULL,10,NULL,NULL,0101000020E6100000112E2E9FF6F55940F57A9C0E0984F43F,20221208,58:13.8,58:13.8,30646,NULL,NULL,0
30645,NULL,West Coast Recreation Centre,12 West Coast Walk,NULL,NULL,103.7619325,1.3095566,20054.13,32430.43,NULL,0,2359,3,NULL,0,0,0,TRUE,NULL,NULL,NULL,11,NULL,NULL,0101000020E61000009C508880C3F05940DE2C149FF1F3F43F,20221208,58:13.7,58:13.7,30645,NULL,NULL,0
30644,NULL,The Galen,61 Science Park Road,NULL,NULL,103.7840873,1.2865523,22519.96,29886.75,NULL,0,2359,4,NULL,0,0,0,TRUE,NULL,NULL,NULL,12,NULL,NULL,0101000020E61000005FAD7F7C2EF259404F7F51DDB795F43F,20221208,58:13.7,58:13.7,30644,NULL,NULL,0
30643,NULL,Temasek Club,131 Rifle Range Road,NULL,NULL,103.7807642,1.3463924,22150.09,36503.51,NULL,0,2359,1,NULL,0,0,0,TRUE,NULL,NULL,NULL,13,NULL,NULL,0101000020E6100000CE38680AF8F15940C453D9C1D28AF53F,20221208,58:13.7,58:13.7,30643,NULL,NULL,0
30642,NULL,The Rutherford,89 Science Park Drive,NULL,NULL,103.7913371,1.2879795,23326.86,30044.56,NULL,0,2359,2,NULL,0,0,0,TRUE,NULL,NULL,NULL,14,NULL,NULL,0101000020E610000023275D44A5F25940E6B16664909BF43F,20221208,58:13.7,58:13.7,30642,NULL,NULL,0
30641,NULL,Pantech 21,200 Pandan Loop,NULL,NULL,103.7518821,1.3112295,18935.52,32615.4,NULL,0,2359,3,NULL,0,0,0,TRUE,NULL,NULL,NULL,15,NULL,NULL,0101000020E6100000A97C19D61EF0594092CEC0C8CBFAF43F,20221208,58:13.7,58:13.7,30641,NULL,NULL,0
30640,NULL,Guthrie House,1 Fifth Avenue,NULL,NULL,103.7957003,1.3308739,23812.48,34787.56,NULL,0,2359,4,NULL,0,0,0,TRUE,2.1,NULL,NULL,16,NULL,NULL,0101000020E6100000B67AF3C0ECF259407F99396E424BF53F,20221208,58:13.7,58:13.7,30640,NULL,NULL,0
30639,NULL,German Centre,25 International Business Park,NULL,NULL,103.7466676,1.3248713,18355.14,34123.83,NULL,0,2359,1,NULL,0,0,0,TRUE,2.1,NULL,NULL,1,NULL,NULL,0101000020E6100000E6BEE666C9EF5940498B8E3FAC32F53F,20221208,58:13.7,58:13.7,30639,NULL,NULL,0
30638,NULL,Creative Technologies,31 International Business Park,NULL,NULL,103.7460398,1.3288525,18285.27,34564.05,NULL,0,2359,2,NULL,0,0,0,TRUE,NULL,NULL,NULL,2,NULL,NULL,0101000020E6100000ECA0B71DBFEF59405053CBD6FA42F53F,20221208,58:13.7,58:13.7,30638,NULL,NULL,0
30637,NULL,Citilink Warehouse Complex,102E Pasir Panjang Road,NULL,NULL,103.7953692,1.2761409,23775.63,28735.52,NULL,0,2359,3,NULL,0,0,0,TRUE,NULL,NULL,NULL,3,NULL,NULL,0101000020E6100000B98F3754E7F25940796869B8126BF43F,20221208,58:13.7,58:13.7,30637,NULL,NULL,0
30636,NULL,Cambridge Industrial Trust,2 Jalan Kilang Barat,NULL,NULL,103.8080032,1.2857041,25181.8,29792.96,NULL,0,2359,4,NULL,0,0,0,TRUE,NULL,NULL,NULL,4,NULL,NULL,0101000020E61000000EC40D53B6F359406F545D763E92F43F,20221208,58:13.7,58:13.7,30636,NULL,NULL,0
30635,NULL,Apex Henderson,201 Henserson Road,NULL,NULL,103.8203498,1.2826997,26555.97,29460.75,NULL,0,2359,1,NULL,0,0,0,TRUE,NULL,NULL,NULL,5,NULL,NULL,0101000020E6100000EE91729C80F45940976CE11EF085F43F,20221208,58:13.7,58:13.7,30635,NULL,NULL,0
30634,NULL,991 Alexandra Road,991 Alexandra Road,NULL,NULL,103.8691847,1.3288509,31991.3,34563.87,NULL,0,2359,2,NULL,0,0,0,TRUE,NULL,NULL,NULL,6,NULL,NULL,0101000020E6100000C02BDDB8A0F75940A4294C29F942F53F,20221208,58:13.7,58:13.7,30634,NULL,NULL,0
30633,NULL,The Punggol Settlement,3 Punggol Point Road,NULL,NULL,103.9120024,1.4208897,36756.91,44740.97,NULL,0,2359,3,NULL,0,0,0,TRUE,NULL,NULL,NULL,7,EPS,NULL,0101000020E6100000E877503F5EFA594070928BD6F6BBF63F,20221208,58:13.6,58:13.6,30633,NULL,NULL,0
30632,NULL,ESR BizPark @ Chai Chee,750A Chai Chee Road,NULL,NULL,103.9214563,1.3232486,37809.13,33944.4,NULL,0,2359,4,NULL,0,0,0,TRUE,2,NULL,NULL,8,NULL,NULL,0101000020E61000005D4CD823F9FA594003A557B9062CF53F,20221208,58:13.6,58:13.6,30632,NULL,NULL,0
30631,NULL,Tat Ann Building,40 Jalan Pemimpin,NULL,NULL,103.8422466,1.3486607,28993.09,36754.32,NULL,0,2359,1,NULL,0,0,0,TRUE,NULL,NULL,NULL,9,NULL,NULL,0101000020E6100000B38A485EE7F559405068FE3D1D94F53F,20221208,58:13.6,58:13.6,30631,NULL,NULL,0
30630,NULL,Singapore Cruise Centre (Tanah Merah),50 Tanah Merah Ferry Road,NULL,NULL,103.988568,1.3139655,45278.66,32917.94,NULL,0,2359,2,NULL,0,0,0,TRUE,NULL,NULL,NULL,10,NULL,NULL,0101000020E6100000D177B7B244FF5940172829B00006F53F,20221208,58:13.6,58:13.6,30630,NULL,NULL,0
30629,NULL,Singapore Cruise Centre (Pasir Panjang),55 Pasir Panjang Road,NULL,NULL,103.7961293,1.2699589,23860.23,28051.95,NULL,0,2359,3,NULL,0,0,0,TRUE,2.1,NULL,NULL,11,NULL,NULL,0101000020E6100000CBB84EC8F3F25940E5396C6CC051F43F,20221208,58:13.6,58:13.6,30629,NULL,NULL,0
30628,NULL,Tampines Mart,5 Tampines Street 32,NULL,NULL,103.9600422,1.3543649,42103.74,37385.06,NULL,0,2359,4,NULL,0,0,0,TRUE,NULL,NULL,NULL,12,NULL,NULL,0101000020E6100000EAF1D65471FD5940DF9A85877AABF53F,20221208,58:13.6,58:13.6,30628,NULL,NULL,0
30627,NULL,Prosper House,101 Geylang Loring 23,NULL,NULL,103.8808915,1.3175919,33294.26,33318.92,NULL,0,2359,1,NULL,0,0,0,TRUE,1.9,NULL,NULL,13,NULL,NULL,0101000020E6100000C3F4BD8660F8594090977F3EDB14F53F,20221208,58:13.6,58:13.6,30627,NULL,NULL,0
30626,NULL,Parkway East Hospital,321 Joo Chiat Place,NULL,NULL,103.908922,1.315097,36414.06,33043.05,NULL,0,2359,2,NULL,0,0,0,TRUE,2.5,NULL,NULL,14,NULL,NULL,0101000020E61000005B272EC72BFA59405915E126A30AF53F,20221208,58:13.6,58:13.6,30626,NULL,NULL,0
30625,NULL,LHK 2 Building,76 Playfair Road,NULL,NULL,103.8865796,1.33648,33927.35,35407.45,NULL,0,2359,3,NULL,0,0,0,TRUE,NULL,NULL,NULL,15,NULL,NULL,0101000020E610000040D35CB8BDF8594018213CDA3862F53F,20221208,58:13.6,58:13.6,30625,NULL,NULL,0
30624,NULL,Kopitiam Square,10 Seng Kang Square,NULL,NULL,103.8935929,1.3915051,34707.93,41491.8,NULL,0,2359,4,NULL,0,0,0,TRUE,NULL,NULL,NULL,16,NULL,NULL,0101000020E6100000055C46A030F95940B1790BDA9A43F63F,20221208,58:13.6,58:13.6,30624,NULL,NULL,0
30623,NULL,Kensington Square,2 Jalan Lokam,NULL,NULL,103.8826959,1.3456077,33495.09,36416.74,NULL,0,2359,1,NULL,0,0,0,TRUE,NULL,NULL,NULL,1,NULL,NULL,0101000020E61000000DB4F1167EF85940B6EE8BF09B87F53F,20221208,58:13.6,58:13.6,30623,NULL,NULL,0
30622,NULL,Kembangan Plaza,18 Jalan Masjid,NULL,NULL,103.9126471,1.3203751,36828.66,33626.67,NULL,0,2359,2,NULL,0,0,0,TRUE,2.1,NULL,NULL,2,NULL,NULL,0101000020E610000083D261CF68FA5940613E0FA44120F53F,20221208,58:13.5,58:13.5,30622,NULL,NULL,0
30621,NULL,Katong Point,451 Joo Chiat Road,NULL,NULL,103.9045531,1.3069167,35927.8,32138.52,NULL,0,2359,3,NULL,0,0,0,TRUE,2,NULL,NULL,3,NULL,NULL,0101000020E6100000B57FAF32E4F95940368A517C21E9F43F,20221208,58:13.5,58:13.5,30621,NULL,NULL,0
30620,NULL,Joo Seng Warehouse,1 Upper Aljunied Link,NULL,NULL,103.8815429,1.3349956,33366.76,35243.32,NULL,800,1800,4,NULL,0,0,0,TRUE,NULL,NULL,NULL,4,NULL,NULL,0101000020E61000005861E9326BF85940C4DCA458245CF53F,20221208,58:13.5,58:13.5,30620,NULL,NULL,0
30619,NULL,Enterprise Industrial Building,46 Geylang Lorong 17,NULL,NULL,103.8786807,1.3148358,33048.2,33014.17,NULL,0,2359,1,NULL,0,0,0,TRUE,NULL,NULL,NULL,5,NULL,NULL,0101000020E61000001788F94D3CF859408CC289439109F53F,20221208,58:13.5,58:13.5,30619,NULL,NULL,0
30618,NULL,Fairprice Hub,1 Joo Koon Circle,NULL,NULL,103.6783923,1.3253918,10756.1,34181.39,NULL,700,2359,2,NULL,0,0,0,TRUE,2.3,NULL,NULL,6,NULL,NULL,0101000020E6100000ED9689C76AEB5940672F3608CE34F53F,20221208,58:13.5,58:13.5,30618,NULL,NULL,0
30617,NULL,Elias Mall,625 Elias Road,NULL,NULL,103.9419891,1.3785703,40094.43,40061.55,NULL,0,2359,3,NULL,0,0,0,TRUE,NULL,NULL,NULL,7,NULL,NULL,0101000020E6100000106CA68C49FC594061CA1BBB9F0EF63F,20221208,58:13.5,58:13.5,30617,NULL,NULL,0
30616,NULL,Eastgate,46 East Coast Road,NULL,NULL,103.9033472,1.3043615,35793.58,31855.98,NULL,0,2359,4,NULL,0,0,0,TRUE,2.2,NULL,NULL,8,NULL,NULL,0101000020E6100000B93BC670D0F9594085950A2AAADEF43F,20221208,58:13.5,58:13.5,30616,NULL,NULL,0
30615,NULL,Shun Li Industrial Park,61 Kaki Bukit Avenue 1,NULL,NULL,103.9106638,1.3366891,36607.92,35430.57,NULL,0,2359,1,NULL,0,0,0,TRUE,NULL,NULL,NULL,9,NULL,NULL,0101000020E6100000ABA9D15048FA5940FCB6161C1463F53F,20221208,58:13.5,58:13.5,30615,NULL,NULL,0
30614,NULL,Gordon Warehouse Building,9 Kaki Bukit Road 2,NULL,NULL,103.8973348,1.3379113,35124.4,35565.72,NULL,0,2359,2,NULL,0,0,0,TRUE,NULL,NULL,NULL,10,NULL,NULL,0101000020E610000003E4F0EE6DF95940782EE7AD1568F53F,20221208,58:13.5,58:13.5,30614,NULL,NULL,0
30613,NULL,Techview,1 Kaki Buki View,NULL,NULL,103.9095647,1.3364066,36485.59,35399.34,NULL,800,2200,3,NULL,0,0,0,TRUE,NULL,NULL,NULL,11,NULL,NULL,0101000020E61000002606DC4E36FA59406F8912E3EB61F53F,20221208,58:13.5,58:13.5,30613,NULL,NULL,0
30612,NULL,Crocodile House,3 Ubi Avenue 3,NULL,NULL,103.8904536,1.3310495,34358.53,34806.98,NULL,0,2359,4,NULL,0,0,0,TRUE,NULL,NULL,NULL,12,NULL,NULL,0101000020E6100000C0A61831FDF85940E5B67D8FFA4BF53F,20221208,58:13.4,58:13.4,30612,NULL,NULL,0
30611,NULL,Singapore University of Technology and Design,8 Somapah Road,NULL,NULL,103.9628601,1.3401716,42417.37,35815.65,NULL,0,2359,1,NULL,0,0,0,TRUE,NULL,NULL,NULL,13,NULL,NULL,0101000020E6100000E407F87F9FFD5940A97290C65771F53F,20221208,58:13.4,58:13.4,30611,NULL,NULL,0
30610,NULL,Greenwich V,1 Seletar Road,NULL,NULL,103.8694236,1.3876033,32017.89,41060.36,NULL,0,2359,2,NULL,0,0,0,TRUE,4.2,NULL,NULL,14,NULL,NULL,0101000020E6100000B817E2A2A4F75940972595849F33F63F,20221208,58:13.4,58:13.4,30610,NULL,NULL,0
30609,NULL,Fairfield Methodist Church,1 Tanjong Pagar Road,NULL,NULL,103.8442819,1.2799352,29219.61,29155.07,NULL,800,2100,3,NULL,0,0,0,TRUE,2.1,NULL,NULL,15,NULL,NULL,0101000020E6100000B446F3B608F65940CDFC0F559D7AF43F,20221208,58:13.4,58:13.4,30609,NULL,NULL,0
30608,NULL,Kallang Basin 4,28 Kallang Place,NULL,NULL,103.866848,1.3152413,31731.22,33059.01,NULL,0,2359,4,NULL,0,0,0,TRUE,NULL,NULL,NULL,16,NULL,NULL,0101000020E610000098A608707AF759408F931D763A0BF53F,20221208,58:13.4,58:13.4,30608,NULL,NULL,0
30607,NULL,Valley Point (Multi Storey Carpark),491 River Valley Road,NULL,NULL,103.827522,1.293042,27354.24,30604.34,NULL,0,2359,1,NULL,0,0,0,TRUE,2.1,NULL,NULL,1,EPS,NULL,0101000020E61000001DAED51EF6F45940C1ABE5CE4CB0F43F,20221208,58:13.4,58:13.4,30607,NULL,NULL,0
30606,NULL,Sin Ming Plaza,6 Sin Ming Road,NULL,NULL,103.8357529,1.3524359,28270.34,37171.76,NULL,0,2359,2,NULL,0,0,0,TRUE,NULL,NULL,NULL,2,NULL,NULL,0101000020E61000006142BBF97CF5594031FB86D393A3F53F,20221208,58:13.4,58:13.4,30606,NULL,NULL,0
30605,NULL,Siglap Centre,55 Siglap Road,NULL,NULL,103.9231681,1.3126057,37999.65,32767.58,NULL,0,2359,3,NULL,,0,0,TRUE,2,NULL,NULL,3,NULL,NULL,0101000020E6100000788DA72F15FB5940E5B0A0D56E00F53F,20221208,58:13.4,58:13.4,30605,NULL,NULL,0
30604,NULL,Automobile Megamart,61 Ubi Avenue 2,NULL,NULL,103.9010565,1.3322333,35538.63,34937.88,NULL,800,2359,4,NULL,0,0,0,TRUE,NULL,NULL,NULL,4,NULL,NULL,0101000020E610000049D6E1E8AAF95940464662DDD350F53F,20221208,58:13.4,58:13.4,30604,NULL,NULL,0
